{"meta": {"code": 200, "requestId": "5d24f14cdb1d810038d94eb7"}, "response": {"suggestedFilters": {"header": "Tap to show:", "filters": [{"name": "$-$$$$", "key": "price"}, {"name": "Open now", "key": "openNow"}]}, "headerLocation": "Rochester", "headerFullLocation": "Rochester", "headerLocationGranularity": "city", "query": "breweries", "totalResults": 31, "suggestedBounds": {"ne": {"lat": 43.30507414778915, "lng": -77.41299672473438}, "sw": {"lat": 43.009495852210854, "lng": -77.8174312752656}}, "groups": [{"type": "Recommended Places", "name": "recommended", "items": [{"reasons": {"count": 0, "items": [{"summary": "This spot is popular", "type": "general", "reasonName": "globalInteractionReason"}]}, "venue": {"id": "4d61da252910594158830447", "name": "Roc Brewing Co., LLC", "location": {"address": "56 S Union St", "crossStreet": "Chapman Alley", "lat": 43.15339006638696, "lng": -77.5977196022586, "labeledLatLngs": [{"label": "display", "lat": 43.15339006638696, "lng": -77.5977196022586}], "distance": 1485, "postalCode": "14607", "cc": "US", "city": "Rochester", "state": "NY", "country": "United States", "formattedAddress": ["56 S Union St (Chapman Alley)", "Rochester, NY 14607", "United States"]}, "categories": [{"id": "50327c8591d4c4b30a586d5d", "name": "Brewery", "pluralName": "Breweries", "shortName": "Brewery", "icon": {"prefix": "https://ss3.4sqi.net/img/categories_v2/food/brewery_", "suffix": ".png"}, "primary": true}], "photos": {"count": 0, "groups": []}, "venuePage": {"id": "475357846"}}, "referralId": "e-0-4d61da252910594158830447-0"}, {"reasons": {"count": 0, "items": [{"summary": "This spot is popular", "type": "general", "reasonName": "globalInteractionReason"}]}, "venue": {"id": "4b97bff9f964a520411335e3", "name": "Genesee Brewery", "location": {"address": "445 Saint Paul St", "lat": 43.16354137959889, "lng": -77.61370319361623, "labeledLatLngs": [{"label": "display", "lat": 43.16354137959889, "lng": -77.61370319361623}], "distance": 707, "postalCode": "14605", "cc": "US", "city": "Rochester", "state": "NY", "country": "United States", "formattedAddress": ["445 Saint Paul St", "Rochester, NY 14605", "United States"]}, "categories": [{"id": "50327c8591d4c4b30a586d5d", "name": "Brewery", "pluralName": "Breweries", "shortName": "Brewery", "icon": {"prefix": "https://ss3.4sqi.net/img/categories_v2/food/brewery_", "suffix": ".png"}, "primary": true}], "photos": {"count": 0, "groups": []}}, "referralId": "e-0-4b97bff9f964a520411335e3-1"}, {"reasons": {"count": 0, "items": [{"summary": "This spot is popular", "type": "general", "reasonName": "globalInteractionReason"}]}, "venue": {"id": "53eaaad2498e15b08011d749", "name": "Swiftwater Brewing", "location": {"address": "378 Mount Hope Ave", "crossStreet": "Hickory St", "lat": 43.1425138739362, "lng": -77.61197469928486, "labeledLatLngs": [{"label": "display", "lat": 43.1425138739362, "lng": -77.61197469928486}], "distance": 1665, "postalCode": "14620", "cc": "US", "city": "Rochester", "state": "NY", "country": "United States", "formattedAddress": ["378 Mount Hope Ave (Hickory St)", "Rochester, NY 14620", "United States"]}, "categories": [{"id": "50327c8591d4c4b30a586d5d", "name": "Brewery", "pluralName": "Breweries", "shortName": "Brewery", "icon": {"prefix": "https://ss3.4sqi.net/img/categories_v2/food/brewery_", "suffix": ".png"}, "primary": true}], "photos": {"count": 0, "groups": []}}, "referralId": "e-0-53eaaad2498e15b08011d749-2"}, {"reasons": {"count": 0, "items": [{"summary": "This spot is popular", "type": "general", "reasonName": "globalInteractionReason"}]}, "venue": {"id": "4f502893e4b0749a943b1e74", "name": "Three Heads Brewing", "location": {"address": "186 Atlantic Ave", "lat": 43.15632713779983, "lng": -77.57973477443937, "labeledLatLngs": [{"label": "display", "lat": 43.15632713779983, "lng": -77.57973477443937}], "distance": 2883, "postalCode": "14607", "cc": "US", "city": "Rochester", "state": "NY", "country": "United States", "formattedAddress": ["186 Atlantic Ave", "Rochester, NY 14607", "United States"]}, "categories": [{"id": "50327c8591d4c4b30a586d5d", "name": "Brewery", "pluralName": "Breweries", "shortName": "Brewery", "icon": {"prefix": "https://ss3.4sqi.net/img/categories_v2/food/brewery_", "suffix": ".png"}, "primary": true}], "photos": {"count": 0, "groups": []}}, "referralId": "e-0-4f502893e4b0749a943b1e74-3"}, {"reasons": {"count": 0, "items": [{"summary": "This spot is popular", "type": "general", "reasonName": "globalInteractionReason"}]}, "venue": {"id": "4b9bc500f964a520212336e3", "name": "Rohrbach Brewing Company", "location": {"address": "97 Railroad St", "lat": 43.16351336941724, "lng": -77.58709460191979, "labeledLatLngs": [{"label": "display", "lat": 43.16351336941724, "lng": -77.58709460191979}], "distance": 2386, "postalCode": "14609", "cc": "US", "city": "Rochester", "state": "NY", "country": "United States", "formattedAddress": ["97 Railroad St", "Rochester, NY 14609", "United States"]}, "categories": [{"id": "50327c8591d4c4b30a586d5d", "name": "Brewery", "pluralName": "Breweries", "shortName": "Brewery", "icon": {"prefix": "https://ss3.4sqi.net/img/categories_v2/food/brewery_", "suffix": ".png"}, "primary": true}], "photos": {"count": 0, "groups": []}}, "referralId": "e-0-4b9bc500f964a520212336e3-4"}, {"reasons": {"count": 0, "items": [{"summary": "This spot is popular", "type": "general", "reasonName": "globalInteractionReason"}]}, "venue": {"id": "53e2737e498e59451b81afa2", "name": "The Lost Borough Brewing Co.", "location": {"address": "543 Atlantic Ave", "crossStreet": "Culver", "lat": 43.15634791994946, "lng": -77.56901742597522, "labeledLatLngs": [{"label": "display", "lat": 43.15634791994946, "lng": -77.56901742597522}], "distance": 3752, "postalCode": "14609", "cc": "US", "city": "Rochester", "state": "NY", "country": "United States", "formattedAddress": ["543 Atlantic Ave (Culver)", "Rochester, NY 14609", "United States"]}, "categories": [{"id": "50327c8591d4c4b30a586d5d", "name": "Brewery", "pluralName": "Breweries", "shortName": "Brewery", "icon": {"prefix": "https://ss3.4sqi.net/img/categories_v2/food/brewery_", "suffix": ".png"}, "primary": true}], "photos": {"count": 0, "groups": []}, "venuePage": {"id": "127059496"}}, "referralId": "e-0-53e2737e498e59451b81afa2-5"}, {"reasons": {"count": 0, "items": [{"summary": "This spot is popular", "type": "general", "reasonName": "globalInteractionReason"}]}, "venue": {"id": "5a68f741d4cc9843c79f690e", "name": "Sager Beer Works", "location": {"address": "46 Sager Dr Ste E", "lat": 43.15054800000001, "lng": -77.56983200000002, "labeledLatLngs": [{"label": "display", "lat": 43.15054800000001, "lng": -77.56983200000002}], "distance": 3760, "postalCode": "14607", "cc": "US", "city": "Rochester", "state": "NY", "country": "United States", "formattedAddress": ["46 Sager Dr Ste E", "Rochester, NY 14607", "United States"]}, "categories": [{"id": "50327c8591d4c4b30a586d5d", "name": "Brewery", "pluralName": "Breweries", "shortName": "Brewery", "icon": {"prefix": "https://ss3.4sqi.net/img/categories_v2/food/brewery_", "suffix": ".png"}, "primary": true}], "photos": {"count": 0, "groups": []}}, "referralId": "e-0-5a68f741d4cc9843c79f690e-6"}, {"reasons": {"count": 0, "items": [{"summary": "This spot is popular", "type": "general", "reasonName": "globalInteractionReason"}]}, "venue": {"id": "54c2f7d2498ea74d80ce12e5", "name": "Blue Toad Hard Cider", "location": {"address": "120 Mushroom Blvd", "lat": 43.09158135642119, "lng": -77.61905888486505, "labeledLatLngs": [{"label": "display", "lat": 43.09158135642119, "lng": -77.61905888486505}], "distance": 7320, "postalCode": "14623", "cc": "US", "city": "Rochester", "state": "NY", "country": "United States", "formattedAddress": ["120 Mushroom Blvd", "Rochester, NY 14623", "United States"]}, "categories": [{"id": "50327c8591d4c4b30a586d5d", "name": "Brewery", "pluralName": "Breweries", "shortName": "Brewery", "icon": {"prefix": "https://ss3.4sqi.net/img/categories_v2/food/brewery_", "suffix": ".png"}, "primary": true}], "photos": {"count": 0, "groups": []}}, "referralId": "e-0-54c2f7d2498ea74d80ce12e5-7"}, {"reasons": {"count": 0, "items": [{"summary": "This spot is popular", "type": "general", "reasonName": "globalInteractionReason"}]}, "venue": {"id": "53f3945f498efdaea7753237", "name": "Knucklehead Craft Brewing", "location": {"address": "426 Ridge Rd", "crossStreet": "Bay Rd", "lat": 43.205923563240844, "lng": -77.51225609566954, "labeledLatLngs": [{"label": "display", "lat": 43.205923563240844, "lng": -77.51225609566954}], "distance": 9957, "postalCode": "14580", "cc": "US", "city": "Webster", "state": "NY", "country": "United States", "formattedAddress": ["426 Ridge Rd (Bay Rd)", "Webster, NY 14580", "United States"]}, "categories": [{"id": "50327c8591d4c4b30a586d5d", "name": "Brewery", "pluralName": "Breweries", "shortName": "Brewery", "icon": {"prefix": "https://ss3.4sqi.net/img/categories_v2/food/brewery_", "suffix": ".png"}, "primary": true}], "photos": {"count": 0, "groups": []}}, "referralId": "e-0-53f3945f498efdaea7753237-8"}, {"reasons": {"count": 0, "items": [{"summary": "This spot is popular", "type": "general", "reasonName": "globalInteractionReason"}]}, "venue": {"id": "5a12f0851ffe973fed21e379", "name": "K2 Brothers Brewing", "location": {"address": "1221 Empire Blvd", "lat": 43.17463340905915, "lng": -77.52150473335952, "labeledLatLngs": [{"label": "display", "lat": 43.17463340905915, "lng": -77.52150473335952}], "distance": 7849, "postalCode": "14609", "cc": "US", "city": "Rochester", "state": "NY", "country": "United States", "formattedAddress": ["1221 Empire Blvd", "Rochester, NY 14609", "United States"]}, "categories": [{"id": "50327c8591d4c4b30a586d5d", "name": "Brewery", "pluralName": "Breweries", "shortName": "Brewery", "icon": {"prefix": "https://ss3.4sqi.net/img/categories_v2/food/brewery_", "suffix": ".png"}, "primary": true}], "photos": {"count": 0, "groups": []}}, "referralId": "e-0-5a12f0851ffe973fed21e379-9"}, {"reasons": {"count": 0, "items": [{"summary": "This spot is popular", "type": "general", "reasonName": "globalInteractionReason"}]}, "venue": {"id": "5037cf4ae4b0b4924bebc9dc", "name": "The Genesee Brew House", "location": {"address": "25 Cataract St", "lat": 43.163587585298075, "lng": -77.61466826646357, "labeledLatLngs": [{"label": "display", "lat": 43.163587585298075, "lng": -77.61466826646357}], "distance": 702, "postalCode": "14605", "cc": "US", "city": "Rochester", "state": "NY", "country": "United States", "formattedAddress": ["25 Cataract St", "Rochester, NY 14605", "United States"]}, "categories": [{"id": "4bf58dd8d48988d11b941735", "name": "Pub", "pluralName": "Pubs", "shortName": "Pub", "icon": {"prefix": "https://ss3.4sqi.net/img/categories_v2/nightlife/pub_", "suffix": ".png"}, "primary": true}], "photos": {"count": 0, "groups": []}, "venuePage": {"id": "57475631"}}, "referralId": "e-0-5037cf4ae4b0b4924bebc9dc-10"}, {"reasons": {"count": 0, "items": [{"summary": "This spot is popular", "type": "general", "reasonName": "globalInteractionReason"}]}, "venue": {"id": "56072426498eef0c16d12919", "name": "The Beer Hall Grill + Taps", "location": {"address": "1517 Empire Blvd", "lat": 43.17866132654305, "lng": -77.51085134718613, "labeledLatLngs": [{"label": "display", "lat": 43.17866132654305, "lng": -77.51085134718613}], "distance": 8801, "postalCode": "14580", "cc": "US", "city": "Penfield", "state": "NY", "country": "United States", "formattedAddress": ["1517 Empire Blvd", "Penfield, NY 14580", "United States"]}, "categories": [{"id": "50327c8591d4c4b30a586d5d", "name": "Brewery", "pluralName": "Breweries", "shortName": "Brewery", "icon": {"prefix": "https://ss3.4sqi.net/img/categories_v2/food/brewery_", "suffix": ".png"}, "primary": true}], "photos": {"count": 0, "groups": []}}, "referralId": "e-0-56072426498eef0c16d12919-11"}, {"reasons": {"count": 0, "items": [{"summary": "This spot is popular", "type": "general", "reasonName": "globalInteractionReason"}]}, "venue": {"id": "4b65fb6bf964a520710c2be3", "name": "Rohrbach Buffalo Road Brewpub", "location": {"address": "3859 Buffalo Road", "crossStreet": "Manitou Road", "lat": 43.1374077424125, "lng": -77.76168057854268, "labeledLatLngs": [{"label": "display", "lat": 43.1374077424125, "lng": -77.76168057854268}], "distance": 12099, "postalCode": "14624", "cc": "US", "city": "Rochester", "state": "NY", "country": "United States", "formattedAddress": ["3859 Buffalo Road (Manitou Road)", "Rochester, NY 14624", "United States"]}, "categories": [{"id": "50327c8591d4c4b30a586d5d", "name": "Brewery", "pluralName": "Breweries", "shortName": "Brewery", "icon": {"prefix": "https://ss3.4sqi.net/img/categories_v2/food/brewery_", "suffix": ".png"}, "primary": true}], "photos": {"count": 0, "groups": []}}, "referralId": "e-0-4b65fb6bf964a520710c2be3-12"}, {"reasons": {"count": 0, "items": [{"summary": "This spot is popular", "type": "general", "reasonName": "globalInteractionReason"}]}, "venue": {"id": "5323ae6f498ea651f3447a9d", "name": "Lock 32 Brewery", "location": {"address": "10 Schoen Pl", "crossStreet": "Washington (153)", "lat": 43.09204861454662, "lng": -77.51292983208663, "labeledLatLngs": [{"label": "display", "lat": 43.09204861454662, "lng": -77.51292983208663}], "distance": 11036, "postalCode": "14534", "cc": "US", "city": "Pittsford", "state": "NY", "country": "United States", "formattedAddress": ["10 Schoen Pl (Washington (153))", "Pittsford, NY 14534", "United States"]}, "categories": [{"id": "50327c8591d4c4b30a586d5d", "name": "Brewery", "pluralName": "Breweries", "shortName": "Brewery", "icon": {"prefix": "https://ss3.4sqi.net/img/categories_v2/food/brewery_", "suffix": ".png"}, "primary": true}], "photos": {"count": 0, "groups": []}}, "referralId": "e-0-5323ae6f498ea651f3447a9d-13"}, {"reasons": {"count": 0, "items": [{"summary": "This spot is popular", "type": "general", "reasonName": "globalInteractionReason"}]}, "venue": {"id": "51698471e4b0749eec71792d", "name": "Fairport Brewing Company", "location": {"address": "99 S Main St", "crossStreet": "Church St", "lat": 43.09881, "lng": -77.44174, "labeledLatLngs": [{"label": "display", "lat": 43.09881, "lng": -77.44174}], "distance": 15524, "postalCode": "14450", "cc": "US", "city": "Fairport", "state": "NY", "country": "United States", "formattedAddress": ["99 S Main St (Church St)", "Fairport, NY 14450", "United States"]}, "categories": [{"id": "50327c8591d4c4b30a586d5d", "name": "Brewery", "pluralName": "Breweries", "shortName": "Brewery", "icon": {"prefix": "https://ss3.4sqi.net/img/categories_v2/food/brewery_", "suffix": ".png"}, "primary": true}], "photos": {"count": 0, "groups": []}}, "referralId": "e-0-51698471e4b0749eec71792d-14"}, {"reasons": {"count": 0, "items": [{"summary": "This spot is popular", "type": "general", "reasonName": "globalInteractionReason"}]}, "venue": {"id": "579ab701498ec9228ff12bf4", "name": "Iron Tug Brewing", "location": {"address": "360 W Ridge Rd", "crossStreet": "Woodside Street", "lat": 43.19978779014556, "lng": -77.63663261008651, "labeledLatLngs": [{"label": "display", "lat": 43.19978779014556, "lng": -77.63663261008651}], "distance": 5040, "postalCode": "14615", "cc": "US", "city": "Rochester", "state": "NY", "country": "United States", "formattedAddress": ["360 W Ridge Rd (Woodside Street)", "Rochester, NY 14615", "United States"]}, "categories": [{"id": "50327c8591d4c4b30a586d5d", "name": "Brewery", "pluralName": "Breweries", "shortName": "Brewery", "icon": {"prefix": "https://ss3.4sqi.net/img/categories_v2/food/brewery_", "suffix": ".png"}, "primary": true}], "photos": {"count": 0, "groups": []}}, "referralId": "e-0-579ab701498ec9228ff12bf4-15"}, {"reasons": {"count": 0, "items": [{"summary": "This spot is popular", "type": "general", "reasonName": "globalInteractionReason"}]}, "venue": {"id": "5a131b3e6c08d149fbb6bd83", "name": "Brindle Haus Brewing Company", "location": {"address": "377 S Union St", "lat": 43.1852264724288, "lng": -77.80457787755134, "labeledLatLngs": [{"label": "display", "lat": 43.1852264724288, "lng": -77.80457787755134}], "distance": 15685, "postalCode": "14559", "cc": "US", "city": "Spencerport", "state": "NY", "country": "United States", "formattedAddress": ["377 S Union St", "Spencerport, NY 14559", "United States"]}, "categories": [{"id": "50327c8591d4c4b30a586d5d", "name": "Brewery", "pluralName": "Breweries", "shortName": "Brewery", "icon": {"prefix": "https://ss3.4sqi.net/img/categories_v2/food/brewery_", "suffix": ".png"}, "primary": true}], "photos": {"count": 0, "groups": []}}, "referralId": "e-0-5a131b3e6c08d149fbb6bd83-16"}, {"reasons": {"count": 0, "items": [{"summary": "This spot is popular", "type": "general", "reasonName": "globalInteractionReason"}]}, "venue": {"id": "4b242ccaf964a520f06224e3", "name": "The Old Toad", "location": {"address": "277 Alexander St", "crossStreet": "at Ryan Aly", "lat": 43.153653956840195, "lng": -77.59536243959808, "labeledLatLngs": [{"label": "display", "lat": 43.153653956840195, "lng": -77.59536243959808}], "distance": 1661, "postalCode": "14607", "cc": "US", "city": "Rochester", "state": "NY", "country": "United States", "formattedAddress": ["277 Alexander St (at Ryan Aly)", "Rochester, NY 14607", "United States"]}, "categories": [{"id": "4bf58dd8d48988d11b941735", "name": "Pub", "pluralName": "Pubs", "shortName": "Pub", "icon": {"prefix": "https://ss3.4sqi.net/img/categories_v2/nightlife/pub_", "suffix": ".png"}, "primary": true}], "photos": {"count": 0, "groups": []}}, "referralId": "e-0-4b242ccaf964a520f06224e3-17"}, {"reasons": {"count": 0, "items": [{"summary": "This spot is popular", "type": "general", "reasonName": "globalInteractionReason"}]}, "venue": {"id": "57c75329498ee24fbe6f2206", "name": "Triphammer Bierwerks", "location": {"address": "111 Parce Ave Ste 3A-1", "lat": 43.10537957264694, "lng": -77.44451533027225, "labeledLatLngs": [{"label": "display", "lat": 43.10537957264694, "lng": -77.44451533027225}], "distance": 15023, "postalCode": "14450", "cc": "US", "city": "Fairport", "state": "NY", "country": "United States", "formattedAddress": ["111 Parce Ave Ste 3A-1", "Fairport, NY 14450", "United States"]}, "categories": [{"id": "50327c8591d4c4b30a586d5d", "name": "Brewery", "pluralName": "Breweries", "shortName": "Brewery", "icon": {"prefix": "https://ss3.4sqi.net/img/categories_v2/food/brewery_", "suffix": ".png"}, "primary": true}], "photos": {"count": 0, "groups": []}}, "referralId": "e-0-57c75329498ee24fbe6f2206-18"}, {"reasons": {"count": 0, "items": [{"summary": "This spot is popular", "type": "general", "reasonName": "globalInteractionReason"}]}, "venue": {"id": "58d27e7c0b565654d7064dee", "name": "WhichCraft Brews", "location": {"address": "1900 Empire Blvd", "lat": 43.19132186942906, "lng": -77.50049997406109, "labeledLatLngs": [{"label": "display", "lat": 43.19132186942906, "lng": -77.50049997406109}], "distance": 10054, "postalCode": "14580", "cc": "US", "city": "Webster", "state": "NY", "country": "United States", "formattedAddress": ["1900 Empire Blvd", "Webster, NY 14580", "United States"]}, "categories": [{"id": "50327c8591d4c4b30a586d5d", "name": "Brewery", "pluralName": "Breweries", "shortName": "Brewery", "icon": {"prefix": "https://ss3.4sqi.net/img/categories_v2/food/brewery_", "suffix": ".png"}, "primary": true}], "delivery": {"id": "891880", "url": "https://www.grubhub.com/restaurant/whichcraft-brews-1900-empire-blvd-webster/891880?affiliate=1131&utm_source=foursquare-affiliate-network&utm_medium=affiliate&utm_campaign=1131&utm_content=891880", "provider": {"name": "grubhub", "icon": {"prefix": "https://fastly.4sqi.net/img/general/cap/", "sizes": [40, 50], "name": "/delivery_provider_grubhub_20180129.png"}}}, "photos": {"count": 0, "groups": []}, "venuePage": {"id": "443173405"}}, "referralId": "e-0-58d27e7c0b565654d7064dee-19"}, {"reasons": {"count": 0, "items": [{"summary": "This spot is popular", "type": "general", "reasonName": "globalInteractionReason"}]}, "venue": {"id": "4b47f2f4f964a520d94426e3", "name": "MacGregor's Grill & Tap Room", "location": {"address": "300 Jefferson Rd", "lat": 43.0924173595771, "lng": -77.65071429304031, "labeledLatLngs": [{"label": "display", "lat": 43.0924173595771, "lng": -77.65071429304031}], "distance": 7775, "postalCode": "14623", "cc": "US", "city": "Rochester", "state": "NY", "country": "United States", "formattedAddress": ["300 Jefferson Rd", "Rochester, NY 14623", "United States"]}, "categories": [{"id": "4bf58dd8d48988d116941735", "name": "Bar", "pluralName": "Bars", "shortName": "Bar", "icon": {"prefix": "https://ss3.4sqi.net/img/categories_v2/nightlife/pub_", "suffix": ".png"}, "primary": true}], "delivery": {"id": "1109646", "url": "https://www.grubhub.com/restaurant/macgregors-grill---henrietta-300-jefferson-rd-rochester/1109646?affiliate=1131&utm_source=foursquare-affiliate-network&utm_medium=affiliate&utm_campaign=1131&utm_content=1109646", "provider": {"name": "grubhub", "icon": {"prefix": "https://fastly.4sqi.net/img/general/cap/", "sizes": [40, 50], "name": "/delivery_provider_grubhub_20180129.png"}}}, "photos": {"count": 0, "groups": []}}, "referralId": "e-0-4b47f2f4f964a520d94426e3-20"}, {"reasons": {"count": 0, "items": [{"summary": "This spot is popular", "type": "general", "reasonName": "globalInteractionReason"}]}, "venue": {"id": "4c55b85c728920a140e5ed84", "name": "Beers Of The World", "location": {"address": "2599 E Henrietta Rd", "crossStreet": "at Calkins Rd", "lat": 43.069671908455, "lng": -77.60829749548685, "labeledLatLngs": [{"label": "display", "lat": 43.069671908455, "lng": -77.60829749548685}], "distance": 9769, "postalCode": "14623", "cc": "US", "city": "Rochester", "state": "NY", "country": "United States", "formattedAddress": ["2599 E Henrietta Rd (at Calkins Rd)", "Rochester, NY 14623", "United States"]}, "categories": [{"id": "5370f356bcbc57f1066c94c2", "name": "Beer Store", "pluralName": "Beer Stores", "shortName": "Beer Store", "icon": {"prefix": "https://ss3.4sqi.net/img/categories_v2/nightlife/beergarden_", "suffix": ".png"}, "primary": true}], "photos": {"count": 0, "groups": []}}, "referralId": "e-0-4c55b85c728920a140e5ed84-21"}, {"reasons": {"count": 0, "items": [{"summary": "This spot is popular", "type": "general", "reasonName": "globalInteractionReason"}]}, "venue": {"id": "5b64aba3492814002c26740b", "name": "Seven Story Brewing", "location": {"address": "604 Pittsford Victor Rd", "lat": 43.062257956954284, "lng": -77.479571362585, "labeledLatLngs": [{"label": "display", "lat": 43.062257956954284, "lng": -77.479571362585}], "distance": 15277, "postalCode": "14534", "cc": "US", "city": "Pittsford", "state": "NY", "country": "United States", "formattedAddress": ["604 Pittsford Victor Rd", "Pittsford, NY 14534", "United States"]}, "categories": [{"id": "50327c8591d4c4b30a586d5d", "name": "Brewery", "pluralName": "Breweries", "shortName": "Brewery", "icon": {"prefix": "https://ss3.4sqi.net/img/categories_v2/food/brewery_", "suffix": ".png"}, "primary": true}], "photos": {"count": 0, "groups": []}}, "referralId": "e-0-5b64aba3492814002c26740b-22"}, {"reasons": {"count": 0, "items": [{"summary": "This spot is popular", "type": "general", "reasonName": "globalInteractionReason"}]}, "venue": {"id": "5130111be4b0316000afc2b6", "name": "Penfield Pour House", "location": {"address": "1665 Penfield Rd", "crossStreet": "Plaza Circle", "lat": 43.131794991359214, "lng": -77.4906239657782, "labeledLatLngs": [{"label": "display", "lat": 43.131794991359214, "lng": -77.4906239657782}], "distance": 10509, "postalCode": "14625", "cc": "US", "city": "Rochester", "state": "NY", "country": "United States", "formattedAddress": ["1665 Penfield Rd (Plaza Circle)", "Rochester, NY 14625", "United States"]}, "categories": [{"id": "4bf58dd8d48988d116941735", "name": "Bar", "pluralName": "Bars", "shortName": "Bar", "icon": {"prefix": "https://ss3.4sqi.net/img/categories_v2/nightlife/pub_", "suffix": ".png"}, "primary": true}], "photos": {"count": 0, "groups": []}}, "referralId": "e-0-5130111be4b0316000afc2b6-23"}, {"reasons": {"count": 0, "items": [{"summary": "This spot is popular", "type": "general", "reasonName": "globalInteractionReason"}]}, "venue": {"id": "5ba403ea6fd626003984ca2e", "name": "FBC University", "location": {"address": "1044 University Ave", "lat": 43.1539743, "lng": -77.57327649999999, "labeledLatLngs": [{"label": "display", "lat": 43.1539743, "lng": -77.57327649999999}], "distance": 3425, "postalCode": "14607", "cc": "US", "city": "Rochester", "state": "NY", "country": "United States", "formattedAddress": ["1044 University Ave", "Rochester, NY 14607", "United States"]}, "categories": [{"id": "50327c8591d4c4b30a586d5d", "name": "Brewery", "pluralName": "Breweries", "shortName": "Brewery", "icon": {"prefix": "https://ss3.4sqi.net/img/categories_v2/food/brewery_", "suffix": ".png"}, "primary": true}], "photos": {"count": 0, "groups": []}}, "referralId": "e-0-5ba403ea6fd626003984ca2e-24"}, {"reasons": {"count": 0, "items": [{"summary": "This spot is popular", "type": "general", "reasonName": "globalInteractionReason"}]}, "venue": {"id": "5cf19bbe06fb60002c343180", "name": "Nine Maidens Brewing Company", "location": {"address": "1344 University Ave Ste 140", "lat": 43.150342, "lng": -77.566316, "labeledLatLngs": [{"label": "display", "lat": 43.150342, "lng": -77.566316}], "distance": 4045, "postalCode": "14607", "cc": "US", "city": "Rochester", "state": "NY", "country": "United States", "formattedAddress": ["1344 University Ave Ste 140", "Rochester, NY 14607", "United States"]}, "categories": [{"id": "50327c8591d4c4b30a586d5d", "name": "Brewery", "pluralName": "Breweries", "shortName": "Brewery", "icon": {"prefix": "https://ss3.4sqi.net/img/categories_v2/food/brewery_", "suffix": ".png"}, "primary": true}], "photos": {"count": 0, "groups": []}}, "referralId": "e-0-5cf19bbe06fb60002c343180-25"}, {"reasons": {"count": 0, "items": [{"summary": "This spot is popular", "type": "general", "reasonName": "globalInteractionReason"}]}, "venue": {"id": "595bdb794420d841ff11dda3", "name": "Sully's Basement Brews", "location": {"address": "77 Cranbrooke Dr", "lat": 43.21352734873972, "lng": -77.57834672927856, "labeledLatLngs": [{"label": "display", "lat": 43.21352734873972, "lng": -77.57834672927856}], "distance": 6939, "postalCode": "14622", "cc": "US", "city": "Rochester", "state": "NY", "country": "United States", "formattedAddress": ["77 Cranbrooke Dr", "Rochester, NY 14622", "United States"]}, "categories": [{"id": "50327c8591d4c4b30a586d5d", "name": "Brewery", "pluralName": "Breweries", "shortName": "Brewery", "icon": {"prefix": "https://ss3.4sqi.net/img/categories_v2/food/brewery_", "suffix": ".png"}, "primary": true}], "photos": {"count": 0, "groups": []}, "venuePage": {"id": "431132708"}}, "referralId": "e-0-595bdb794420d841ff11dda3-26"}, {"reasons": {"count": 0, "items": [{"summary": "This spot is popular", "type": "general", "reasonName": "globalInteractionReason"}]}, "venue": {"id": "4e29e87d45dd3272c801ab7f", "name": "West Ridge Beverage", "location": {"address": "662 W Ridge Rd", "lat": 43.20261497200245, "lng": -77.64444819801092, "labeledLatLngs": [{"label": "display", "lat": 43.20261497200245, "lng": -77.64444819801092}], "distance": 5576, "postalCode": "14615", "cc": "US", "city": "Rochester", "state": "NY", "country": "United States", "formattedAddress": ["662 W Ridge Rd", "Rochester, NY 14615", "United States"]}, "categories": [{"id": "50327c8591d4c4b30a586d5d", "name": "Brewery", "pluralName": "Breweries", "shortName": "Brewery", "icon": {"prefix": "https://ss3.4sqi.net/img/categories_v2/food/brewery_", "suffix": ".png"}, "primary": true}], "photos": {"count": 0, "groups": []}}, "referralId": "e-0-4e29e87d45dd3272c801ab7f-27"}, {"reasons": {"count": 0, "items": [{"summary": "This spot is popular", "type": "general", "reasonName": "globalInteractionReason"}]}, "venue": {"id": "5a7f884c4940bc4e60d37342", "name": "Falkin Good BBQ", "location": {"lat": 43.16772062711791, "lng": -77.47833251953125, "labeledLatLngs": [{"label": "display", "lat": 43.16772062711791, "lng": -77.47833251953125}], "distance": 11175, "cc": "US", "city": "Penfield", "state": "NY", "country": "United States", "formattedAddress": ["Penfield, NY", "United States"]}, "categories": [{"id": "50327c8591d4c4b30a586d5d", "name": "Brewery", "pluralName": "Breweries", "shortName": "Brewery", "icon": {"prefix": "https://ss3.4sqi.net/img/categories_v2/food/brewery_", "suffix": ".png"}, "primary": true}], "photos": {"count": 0, "groups": []}, "venuePage": {"id": "478601648"}}, "referralId": "e-0-5a7f884c4940bc4e60d37342-28"}, {"reasons": {"count": 0, "items": [{"summary": "This spot is popular", "type": "general", "reasonName": "globalInteractionReason"}]}, "venue": {"id": "595d8d94a3061967d044a34d", "name": "Wood Kettle Brewing", "location": {"address": "1192 Manitou Rd", "crossStreet": "Latta Rd", "lat": 43.254502086084734, "lng": -77.7501368522644, "labeledLatLngs": [{"label": "display", "lat": 43.254502086084734, "lng": -77.7501368522644}], "distance": 15393, "postalCode": "14468", "cc": "US", "city": "Hilton", "state": "NY", "country": "United States", "formattedAddress": ["1192 Manitou Rd (Latta Rd)", "Hilton, NY 14468", "United States"]}, "categories": [{"id": "50327c8591d4c4b30a586d5d", "name": "Brewery", "pluralName": "Breweries", "shortName": "Brewery", "icon": {"prefix": "https://ss3.4sqi.net/img/categories_v2/food/brewery_", "suffix": ".png"}, "primary": true}], "photos": {"count": 0, "groups": []}}, "referralId": "e-0-595d8d94a3061967d044a34d-29"}, {"reasons": {"count": 0, "items": [{"summary": "This spot is popular", "type": "general", "reasonName": "globalInteractionReason"}]}, "venue": {"id": "524df17711d213f393e6abe2", "name": "Bar Louie", "location": {"address": "98 Greece Ridge Center Dr", "lat": 43.2077526, "lng": -77.6879946, "labeledLatLngs": [{"label": "display", "lat": 43.2077526, "lng": -77.6879946}], "distance": 8152, "postalCode": "14626", "cc": "US", "city": "Rochester", "state": "NY", "country": "United States", "formattedAddress": ["98 Greece Ridge Center Dr", "Rochester, NY 14626", "United States"]}, "categories": [{"id": "4bf58dd8d48988d155941735", "name": "Gastropub", "pluralName": "Gastropubs", "shortName": "Gastropub", "icon": {"prefix": "https://ss3.4sqi.net/img/categories_v2/food/gastropub_", "suffix": ".png"}, "primary": true}], "photos": {"count": 0, "groups": []}}, "referralId": "e-0-524df17711d213f393e6abe2-30"}]}]}}